{"type": "FeatureCollection", "features": [{"id": "0", "type": "Feature", "properties": {"Altezza": 2.55, "Dist_rifl": null, "Id": "S_06", "Indirizzo": "C.so Marconi 27", "Sito": "TOBIKE 77", "classe": 0}, "geometry": {"type": "Point", "coordinates": [7.682554760183585, 45.05555104719157]}}, {"id": "1", "type": "Feature", "properties": {"Altezza": 2.55, "Dist_rifl": 2.65, "Id": "S_05", "Indirizzo": "Via Baretti 17", "Sito": "TOBIKE 75", "classe": 2}, "geometry": {"type": "Point", "coordinates": [7.681342896617653, 45.05758756276319]}}, {"id": "2", "type": "Feature", "properties": {"Altezza": 3.1, "Dist_rifl": null, "Id": "S_03", "Indirizzo": "L.go Saluzzo", "Sito": "Palo Luce", "classe": 1}, "geometry": {"type": "Point", "coordinates": [7.678858751834246, 45.058497479969674]}}, {"id": "3", "type": "Feature", "properties": {"Altezza": 5.1, "Dist_rifl": 1.0, "Id": "S_02", "Indirizzo": "Via Principe Tommaso, 18 bis", "Sito": "ANCOSConfartigianato", "classe": 3}, "geometry": {"type": "Point", "coordinates": [7.681567038956784, 45.05781641712768]}}, {"id": "4", "type": "Feature", "properties": {"Altezza": 5.5, "Dist_rifl": null, "Id": "S_01", "Indirizzo": "Via Saluzzo 26", "Sito": "Polizia Municipale", "classe": 2}, "geometry": {"type": "Point", "coordinates": [7.679054445413965, 45.05924947407935]}}]}